City_ID,City,Country,Lat,Lng,Max Temp,Humidity,Cloudiness,Wind Speed,Current Description
0,Nanortalik,GL,60.1432,-45.2371,31.1,93,2,12.57,clear sky
1,Hilo,US,19.7297,-155.09,73.4,64,75,9.08,light rain
2,Cidreira,BR,-30.1811,-50.2056,72.9,91,100,15.17,overcast clouds
3,Port Augusta,AU,-32.5,137.7667,82.99,65,0,21.85,clear sky
4,Rikitea,PF,-23.1203,-134.9692,80.01,69,87,4.25,light rain
5,Jamestown,US,42.097,-79.2353,17.01,79,90,18.41,light snow
6,Hede,CN,33.7681,120.2517,46.17,50,0,12.84,clear sky
7,Zaraza,VE,9.3503,-65.3245,70.68,92,52,4.23,broken clouds
8,Poum,NC,-20.2333,164.0167,80.11,79,98,11.27,overcast clouds
9,Chuy,UY,-33.6971,-53.4616,66.33,83,73,8.05,broken clouds
10,Puerto Ayora,EC,-0.7393,-90.3518,77.0,90,67,1.01,broken clouds
11,Gold Coast,AU,-28.0,153.4333,82.99,61,40,12.66,scattered clouds
12,Port Alfred,ZA,-33.5906,26.891,71.01,82,0,5.01,clear sky
13,Husavik,IS,66.0449,-17.3389,-0.4,85,0,2.3,clear sky
14,Mar Del Plata,AR,-38.0023,-57.5575,71.01,73,0,6.91,light rain
15,Mataura,NZ,-46.1927,168.8643,48.0,80,100,8.01,overcast clouds
16,Busselton,AU,-33.65,115.3333,84.99,43,0,4.0,clear sky
17,Guerrero Negro,MX,27.9769,-114.0611,57.83,77,88,5.84,overcast clouds
18,Sao Filipe,CV,14.8961,-24.4956,74.3,60,100,6.26,overcast clouds
19,Mananjary,MG,-21.2167,48.3333,87.33,60,70,3.78,broken clouds
20,Baksanenok,RU,43.6897,43.6547,33.8,93,75,4.59,light rain
21,Severo-Kurilsk,RU,50.6789,156.125,25.11,92,100,11.74,overcast clouds
22,Sinegorskiy,RU,48.0139,40.8447,35.58,84,99,14.2,overcast clouds
23,Kodiak,US,57.79,-152.4072,33.8,75,90,17.27,light snow
24,Cherskiy,RU,68.75,161.3,-27.9,84,100,3.94,overcast clouds
25,Ambovombe,MG,-25.1667,46.0833,90.14,52,0,6.44,clear sky
26,Benguela,AO,-12.5763,13.4055,77.94,65,99,3.31,overcast clouds
27,Punta Arenas,CL,-53.15,-70.9167,39.2,70,20,13.8,few clouds
28,Tuktoyaktuk,CA,69.4541,-133.0374,-34.6,74,1,9.22,clear sky
29,Los Llanos De Aridane,ES,28.6585,-17.9182,64.99,94,0,6.91,clear sky
30,Praya,CV,14.9215,-23.5087,71.6,43,0,12.66,clear sky
31,Okha,RU,53.5739,142.9478,-1.21,93,97,8.79,overcast clouds
32,Irbeyskoye,RU,55.6428,95.4522,4.5,93,100,3.29,snow
33,Onega,RU,63.9061,38.1404,18.73,96,100,11.27,light snow
34,Manokwari,ID,-0.8667,134.0833,77.45,84,100,6.64,overcast clouds
35,Vostok,RU,46.4856,135.8833,-6.72,91,100,7.05,light snow
36,Horconcitos,PA,8.4682,-81.8007,66.07,85,92,9.57,overcast clouds
37,Qaanaaq,GL,77.484,-69.3632,-14.22,61,0,5.37,clear sky
38,Kirkland Lake,CA,48.1446,-80.0377,3.2,85,99,7.16,overcast clouds
39,Tura,IN,25.5198,90.2201,77.29,34,0,4.18,clear sky
40,Bengkulu,ID,-3.8004,102.2655,81.79,72,100,8.88,overcast clouds
41,Hobart,AU,-42.8794,147.3294,64.99,72,75,14.97,broken clouds
42,Ushuaia,AR,-54.8,-68.3,39.2,87,75,26.46,light snow
43,Lompoc,US,34.6391,-120.4579,51.8,87,90,3.44,overcast clouds
44,Bluff,NZ,-46.6,168.3333,48.0,80,100,8.01,overcast clouds
45,Horta,PT,38.5333,-28.6333,60.33,72,28,33.84,scattered clouds
46,Beringovskiy,RU,63.05,179.3167,-6.39,90,100,21.14,overcast clouds
47,Thompson,CA,55.7435,-97.8558,-7.6,84,75,3.44,broken clouds
48,Airai,TL,-8.9266,125.4092,65.37,99,100,6.49,overcast clouds
49,Ormenis,RO,46.0167,25.55,25.0,83,100,1.66,light snow
50,Virginia Beach,US,36.8529,-75.978,32.0,47,1,17.27,clear sky
51,Karlskoga,SE,59.3267,14.5239,21.2,86,20,8.05,few clouds
52,Chemax,MX,20.65,-87.9333,70.38,79,100,5.5,overcast clouds
53,Faya,SA,18.3851,42.4509,64.4,17,0,5.75,clear sky
54,Westport,US,41.1415,-73.3579,19.4,49,1,14.97,clear sky
55,Barrow,US,71.2906,-156.7887,-16.6,76,1,10.36,clear sky
56,New Norfolk,AU,-42.7826,147.0587,64.99,61,100,4.0,overcast clouds
57,Anadyr,RU,64.75,177.4833,-0.4,78,0,2.24,clear sky
58,Port Elizabeth,ZA,-33.918,25.5701,69.8,73,0,12.66,clear sky
59,Kristinehamn,SE,59.3098,14.1081,21.2,92,20,4.61,light snow
60,Vaini,TO,-21.2,-175.2,77.0,100,90,23.02,moderate rain
61,Freeport,US,40.6576,-73.5832,21.2,49,1,14.97,clear sky
62,Umred,IN,20.85,79.3333,69.8,52,75,5.75,haze
63,Hermanus,ZA,-34.4187,19.2345,64.0,79,18,4.99,few clouds
64,Bathsheba,BB,13.2167,-59.5167,77.0,69,40,12.66,scattered clouds
65,Port Hardy,CA,50.6996,-127.4199,41.0,100,40,2.3,scattered clouds
66,Lorengau,PG,-2.0226,147.2712,84.15,72,18,9.33,few clouds
67,Avera,US,33.194,-82.5271,33.8,80,1,4.61,clear sky
68,Ayan,RU,56.45,138.1667,-9.99,85,17,2.98,few clouds
69,Pacific Grove,US,36.6177,-121.9166,48.2,93,90,8.05,overcast clouds
70,Catamarca,AR,-28.4696,-65.7852,63.0,88,0,10.8,clear sky
71,Saskylakh,RU,71.9167,114.0833,-41.82,78,18,2.46,few clouds
72,Yellowknife,CA,62.456,-114.3525,-25.6,75,1,9.22,clear sky
73,Laguna,US,38.421,-121.4238,46.99,87,90,6.91,overcast clouds
74,Hithadhoo,MV,-0.6,73.0833,82.54,70,35,8.12,scattered clouds
75,Pasinler,TR,39.9803,41.6764,30.2,69,75,11.5,light snow
76,Tynda,RU,55.1667,124.7167,-23.33,82,100,2.51,overcast clouds
77,Saint-Philippe,RE,-21.3585,55.7679,86.0,62,40,5.75,light rain
78,Pozo Colorado,PY,-23.4923,-58.7972,76.55,80,0,7.67,clear sky
79,Kavaratti,IN,10.5669,72.642,80.89,70,0,10.29,clear sky
80,Manta,EC,-0.95,-80.7333,78.8,89,75,5.75,light rain
81,Carnarvon,AU,-24.8667,113.6333,91.4,55,0,17.27,clear sky
82,Mahenge,TZ,-8.6833,36.7167,70.75,96,100,2.57,overcast clouds
83,Nikolskoye,RU,59.7035,30.7861,30.2,93,75,6.71,light snow
84,Mahebourg,MU,-20.4081,57.7,86.0,62,40,16.11,scattered clouds
85,Kamenka,RU,51.3223,42.7678,32.0,95,100,11.65,overcast clouds
86,Palmas,BR,-10.2128,-48.3603,71.6,88,20,5.75,few clouds
87,Haines Junction,CA,60.7522,-137.5108,-16.6,76,100,1.14,overcast clouds
88,Bud,US,39.447,-86.1758,19.4,79,1,2.98,clear sky
89,Grand Forks,US,47.9417,-97.4337,19.4,86,90,8.05,light snow
90,Whitehorse,CA,60.7161,-135.0538,-7.01,71,75,20.71,broken clouds
91,Saint-Joseph,RE,-21.3667,55.6167,86.0,62,40,5.75,light rain
92,Santa Maria Del Oro,MX,25.9333,-105.3667,51.71,46,0,2.42,clear sky
93,Klaksvik,FO,62.2266,-6.589,33.8,64,20,9.22,few clouds
94,Cape Town,ZA,-33.9258,18.4232,71.01,56,75,5.75,broken clouds
95,Raga,SS,8.4596,25.678,77.11,16,0,9.1,clear sky
96,Iqaluit,CA,63.7506,-68.5145,-11.2,77,1,23.02,snow
97,Bayanday,RU,53.0661,105.5139,-17.28,80,100,2.19,overcast clouds
98,Lagoa,PT,39.05,-27.9833,60.31,71,17,39.3,few clouds
99,Port Keats,AU,-14.25,129.55,83.25,81,100,14.2,overcast clouds
100,Kruisfontein,ZA,-34.0033,24.7314,71.01,63,0,1.99,clear sky
101,Hamilton,US,39.1834,-84.5333,23.0,82,0,3.49,clear sky
102,Alyangula,AU,-13.8483,136.4192,91.4,58,40,5.75,scattered clouds
103,Asau,RO,46.4333,26.4,35.01,74,0,5.75,clear sky
104,Sioux Lookout,CA,50.1001,-91.917,-16.6,83,1,2.3,clear sky
105,Tchaourou,BJ,8.8865,2.5975,72.0,81,0,3.62,clear sky
106,Lavrentiya,RU,65.5833,-171.0,-16.1,82,100,11.7,overcast clouds
107,Panguna,PG,-6.3164,155.4848,74.5,95,100,2.57,light rain
108,Vila Velha,BR,-20.3297,-40.2925,77.0,83,0,8.05,clear sky
109,Taoudenni,ML,22.6783,-3.9836,59.94,35,0,10.83,clear sky
110,Bharatpur,IN,27.2167,77.4833,67.93,25,0,5.64,clear sky
111,Awjilah,LY,29.1081,21.2869,50.74,74,0,1.77,clear sky
112,Oranjestad,AW,12.524,-70.027,77.0,83,20,9.22,few clouds
113,Cockburn Town,TC,21.4612,-71.1419,75.69,81,71,17.09,broken clouds
114,Alice Springs,AU,-23.7,133.8833,90.0,45,75,20.71,light rain
115,Sorata,BO,-15.7667,-68.6333,43.65,80,82,1.19,broken clouds
116,Bonfim,BR,3.0833,-59.95,73.94,74,56,8.48,broken clouds
117,Ponta Do Sol,PT,32.6667,-17.1,57.0,75,0,1.99,clear sky
118,Kavieng,PG,-2.5744,150.7967,84.24,76,100,13.0,overcast clouds
119,Youkounkoun,GN,12.5333,-13.1333,60.94,66,0,2.68,clear sky
120,Hukuntsi,BW,-24.0,21.75,81.7,47,8,8.55,clear sky
121,Goderich,CA,43.7501,-81.7165,17.6,86,100,10.36,light snow
122,Lazaro Cardenas,MX,17.9583,-102.2,73.42,73,21,2.48,few clouds
123,Gouyave,GD,12.1646,-61.7296,75.2,83,20,6.91,few clouds
124,Tautira,PF,-17.7333,-149.15,78.8,73,75,1.14,broken clouds
125,Komsomolskiy,UZ,40.4272,71.7189,41.0,38,0,2.77,clear sky
126,Flinders,AU,-34.5833,150.8552,70.0,93,100,4.0,light rain
127,Avarua,CK,-21.2078,-159.775,78.8,89,75,2.3,light rain
128,Albany,US,42.6001,-73.9662,12.0,61,30,1.01,scattered clouds
129,East London,ZA,-33.0153,27.9116,71.6,68,0,13.8,clear sky
130,Skibbereen,IE,51.55,-9.2667,46.4,87,75,23.02,broken clouds
131,Koshurnikovo,RU,54.1667,93.3,24.08,98,100,16.6,snow
132,Lasa,IT,46.6166,10.7002,32.0,93,90,3.44,overcast clouds
133,Paslek,PL,54.0616,19.6593,30.0,100,90,10.58,overcast clouds
134,Nome,US,64.5011,-165.4064,10.4,61,90,8.05,light snow
135,Carutapera,BR,-1.195,-46.02,75.69,91,100,5.7,overcast clouds
136,Port-Gentil,GA,-0.7193,8.7815,77.0,94,40,9.44,scattered clouds
137,Epernay,FR,49.05,3.95,50.0,81,20,16.11,few clouds
138,Harper,LR,4.375,-7.7169,77.94,89,0,6.82,clear sky
139,Tual,ID,-5.6667,132.75,83.16,78,100,17.85,overcast clouds
140,Badulla,LK,6.9895,81.0557,70.07,87,100,4.07,overcast clouds
141,Fort-Shevchenko,KZ,44.5086,50.263,38.61,77,100,19.35,overcast clouds
142,Praia,CV,14.9215,-23.5087,71.6,43,0,12.66,clear sky
143,Geraldton,AU,-28.7667,114.6,93.2,31,0,24.16,clear sky
144,Nouadhibou,MR,20.931,-17.0347,64.4,52,0,12.66,clear sky
145,Nokaneng,BW,-19.6667,22.2667,74.21,81,100,7.16,light rain
146,Mkushi,ZM,-13.6202,29.3939,67.06,92,100,2.93,light rain
147,Praia Da Vitoria,PT,38.7333,-27.0667,61.0,72,75,23.11,broken clouds
148,Kapaa,US,22.0752,-159.319,73.4,68,1,19.57,clear sky
149,Mpraeso,GH,6.5932,-0.7346,70.68,95,2,2.48,clear sky
150,Santa Maria,BR,-29.6842,-53.8069,69.48,97,22,3.31,few clouds
151,Lima,PE,-12.0432,-77.0282,72.0,83,0,8.05,clear sky
152,Mount Isa,AU,-20.7333,139.5,100.4,25,40,12.66,scattered clouds
153,Panaba,MX,21.2833,-88.2667,66.76,85,3,8.25,clear sky
154,Tinskoy,RU,56.1525,96.9161,-11.04,89,100,7.02,snow
155,Mola Di Bari,IT,41.0609,17.0873,45.0,87,0,6.91,clear sky
156,Khatanga,RU,71.9667,102.5,-47.47,72,0,2.84,clear sky
157,Vila Franca Do Campo,PT,37.7167,-25.4333,64.0,94,75,28.77,broken clouds
158,Clyde River,CA,70.4692,-68.5914,-18.4,76,1,8.05,clear sky
159,Trat,TH,12.5,102.5,93.0,49,20,11.5,few clouds
160,Upington,ZA,-28.4478,21.2561,73.4,31,0,3.44,clear sky
161,Georgetown,MY,5.4112,100.3354,89.01,51,20,5.75,few clouds
162,Maniitsoq,GL,65.4167,-52.9,25.75,77,0,5.7,clear sky
163,Ribeira Brava,PT,32.65,-17.0667,57.0,95,1,3.0,clear sky
164,Allapalli,IN,19.4167,80.0667,83.03,53,66,6.04,broken clouds
165,Linjiang,CN,41.8069,126.9078,6.82,77,4,5.82,clear sky
166,Bredasdorp,ZA,-34.5322,20.0403,64.4,59,75,11.5,broken clouds
167,Padang,ID,-0.9492,100.3543,86.0,66,20,9.22,few clouds
168,Butaritari,KI,3.0707,172.7902,80.96,79,83,15.55,broken clouds
169,Norman Wells,CA,65.282,-126.8329,-36.4,67,20,3.44,few clouds
170,Antalaha,MG,-14.9003,50.2788,85.33,62,100,5.06,overcast clouds
171,Bethel,US,41.3712,-73.414,15.8,53,1,5.75,clear sky
172,Ixtapa,MX,20.7,-105.2,70.0,81,0,3.18,clear sky
173,Caorle,IT,45.5966,12.8758,32.0,93,100,5.32,overcast clouds
174,Nalut,LY,30.3333,10.85,49.12,58,0,2.59,clear sky
175,Pochutla,MX,15.7432,-96.4661,71.01,85,100,3.0,overcast clouds
176,Nyrob,RU,60.733,56.7202,21.2,97,100,5.53,overcast clouds
177,Muravlenko,RU,63.7898,74.523,-28.79,84,33,11.79,scattered clouds
178,Menongue,AO,-14.6585,17.691,63.46,91,100,5.95,overcast clouds
179,Gigmoto,PH,13.7796,124.39,75.92,79,100,19.89,overcast clouds
180,Santa Catarina De Tepehuanes,MX,25.35,-105.7333,50.74,46,0,2.93,clear sky
181,Derzhavinsk,KZ,51.1,66.3167,24.12,93,0,7.99,clear sky
182,Evanston,US,42.0411,-87.6901,17.6,62,1,2.89,clear sky
183,Vanimo,PG,-2.6741,141.3028,84.02,74,67,11.23,broken clouds
184,Tuatapere,NZ,-46.1333,167.6833,48.0,80,98,8.01,overcast clouds
185,General Roca,AR,-39.0333,-67.5833,62.6,63,75,8.05,light rain
186,Aklavik,CA,68.2191,-135.0107,-23.8,76,54,6.91,broken clouds
187,Touros,BR,-5.1989,-35.4608,77.0,83,20,5.75,few clouds
188,Ginir,ET,7.1333,40.7,67.37,31,1,7.65,clear sky
189,Arraial Do Cabo,BR,-22.9661,-42.0278,75.83,87,3,17.87,clear sky
190,Ati,TD,13.2154,18.3353,70.45,18,0,15.93,clear sky
191,Umm Lajj,SA,25.0213,37.2685,70.27,57,1,14.85,clear sky
192,Osterburg,DE,52.7833,11.7667,30.99,73,100,1.99,overcast clouds
193,Itiuba,BR,-10.6917,-39.8536,67.06,96,100,3.62,overcast clouds
194,Zhangye,CN,38.9342,100.4517,31.33,69,0,3.15,clear sky
195,Ulaanbaatar,MN,47.9077,106.8832,19.4,58,40,17.9,scattered clouds
196,Miandrivazo,MG,-19.5167,45.4667,87.21,62,3,2.3,clear sky
197,Evensk,RU,61.95,159.2333,-3.42,84,100,9.86,overcast clouds
198,Provideniya,RU,64.3833,-173.3,-4.88,83,100,14.12,overcast clouds
199,Chulym,RU,55.0997,80.9572,24.8,98,100,15.64,overcast clouds
200,Novomyshastovskaya,RU,45.1991,38.5827,39.0,79,63,11.81,broken clouds
201,Manbij,SY,36.5281,37.9549,39.2,100,90,9.22,light rain
202,Faanui,PF,-16.4833,-151.75,81.55,68,100,9.84,overcast clouds
203,Imeni Zhelyabova,RU,58.9544,36.5956,29.07,99,100,9.44,snow
204,Jasdan,IN,22.0333,71.2,75.0,25,0,10.36,clear sky
205,Cervo,ES,43.6702,-7.4101,54.0,99,97,8.99,overcast clouds
206,Hare Bay,CA,48.8499,-54.0148,21.2,93,90,6.91,light snow
207,Mayo,US,38.8876,-76.5119,27.0,50,75,17.47,broken clouds
208,Ribeira Grande,PT,38.5167,-28.7,61.39,70,13,34.2,few clouds
209,Lebu,CL,-37.6167,-73.65,59.07,97,100,14.94,overcast clouds
210,Paamiut,GL,61.994,-49.6678,33.4,83,96,6.17,overcast clouds
211,Saint-Augustin,CA,51.226,-58.6502,8.24,91,0,8.12,clear sky
212,Sakaiminato,JP,35.55,133.2333,35.6,51,75,27.63,light snow
213,Barcelos,PT,41.5388,-8.6151,55.4,100,75,12.66,light intensity drizzle
214,Torrox,ES,36.7579,-3.9523,57.99,60,54,1.99,broken clouds
215,Marrakesh,MA,31.6315,-8.0083,50.0,71,0,3.44,clear sky
216,Ardmore,US,34.1743,-97.1436,39.99,75,1,5.75,clear sky
217,Wana,PK,32.2989,69.5725,50.9,36,0,3.87,clear sky
218,Acapulco,MX,16.8634,-99.8901,75.04,75,98,4.83,overcast clouds
219,Champerico,GT,14.3,-91.9167,68.0,85,90,2.86,overcast clouds
220,Dunedin,NZ,-45.8742,170.5036,53.01,74,99,5.99,overcast clouds
221,Tasiilaq,GL,65.6145,-37.6368,24.8,86,90,5.75,light rain
222,Mount Gambier,AU,-37.8333,140.7667,71.6,64,75,19.57,broken clouds
223,Marondera,ZW,-18.1853,31.5519,66.22,89,100,3.13,light rain
224,Rawson,AR,-43.3002,-65.1023,60.57,53,31,5.53,scattered clouds
225,Williston,US,48.147,-103.618,16.0,83,100,1.01,overcast clouds
226,Thibodaux,US,29.7958,-90.8229,45.0,84,5,4.16,clear sky
227,Tarauaca,BR,-8.1614,-70.7656,71.65,98,100,2.39,overcast clouds
228,Wanaka,NZ,-44.7,169.15,56.88,49,5,5.19,clear sky
229,Huarmey,PE,-10.0681,-78.1522,70.27,77,92,2.53,overcast clouds
230,Dikson,RU,73.5069,80.5464,-33.11,85,1,1.86,clear sky
231,Longyearbyen,SJ,78.2186,15.6401,-2.2,50,20,26.46,few clouds
232,Kangaatsiaq,GL,68.3065,-53.4641,5.45,86,0,8.23,clear sky
233,Rio Grande,BR,-32.035,-52.0986,72.0,95,55,10.45,broken clouds
234,Aksarka,RU,66.5606,67.7975,-39.35,80,26,8.46,scattered clouds
235,Lensk,RU,60.7253,114.9278,-34.78,77,89,2.66,overcast clouds
236,Vardo,NO,70.3705,31.1107,17.6,79,75,23.02,light snow
237,Vredendal,ZA,-31.6683,18.5012,65.62,54,0,2.17,clear sky
238,Comodoro Rivadavia,AR,-45.8667,-67.5,57.2,54,0,6.91,clear sky
239,Ngunguru,NZ,-35.6167,174.5,66.99,51,0,8.99,clear sky
240,Palana,RU,59.1167,159.9667,-9.83,94,73,4.32,broken clouds
241,Salalah,OM,17.0151,54.0924,75.2,60,20,3.44,few clouds
242,Rocha,UY,-34.4833,-54.3333,61.81,89,76,6.91,broken clouds
243,Muzhi,RU,65.3667,64.6667,-34.49,82,8,4.76,clear sky
244,Utiel,ES,39.5667,-1.2,62.6,55,0,8.05,clear sky
245,Atar,MR,20.5169,-13.0499,62.96,33,0,10.0,clear sky
246,Atuona,PF,-9.8,-139.0333,78.71,79,87,18.88,overcast clouds
247,Chilca,PE,-12.5211,-76.7372,72.0,83,0,8.05,clear sky
248,Lufilufi,WS,-13.8745,-171.5986,82.4,94,90,14.97,light rain
249,Hambantota,LK,6.1241,81.1185,86.0,74,75,3.44,broken clouds
250,Yangambi,CD,0.8102,24.4336,75.49,88,98,2.13,light rain
251,Caravelas,BR,-17.7125,-39.2481,74.66,89,85,7.18,overcast clouds
252,Mandera,KE,3.9366,41.867,85.55,34,6,17.34,clear sky
253,Upernavik,GL,72.7868,-56.1549,-12.24,82,0,12.64,clear sky
254,Simga,IN,21.6333,81.7,73.4,73,75,4.61,haze
255,Karasburg,NA,-28.0167,18.75,77.18,18,0,7.38,clear sky
256,Moose Factory,CA,51.2585,-80.6094,3.2,85,90,9.22,overcast clouds
257,Sitka,US,57.0531,-135.33,35.6,55,90,18.41,overcast clouds
258,Staraya Toropa,RU,56.2801,31.6702,31.15,99,100,6.22,snow
259,Myitkyina,MM,25.3833,97.4,85.59,23,0,1.1,clear sky
260,Sfantu Gheorghe,RO,45.8667,25.7833,25.0,83,100,0.25,overcast clouds
261,Sorong,ID,-0.8833,131.25,81.55,77,100,9.44,overcast clouds
262,Zakharovo,RU,54.366,39.2792,32.59,95,100,14.85,overcast clouds
263,Acarau,BR,-2.8856,-40.12,77.72,85,100,9.66,light rain
264,Pointe-Noire,CG,-4.7761,11.8635,77.0,94,75,3.44,moderate rain
265,Katsuura,JP,35.1333,140.3,51.8,18,20,19.57,few clouds
266,Souillac,MU,-20.5167,57.5167,86.0,62,40,16.11,scattered clouds
267,Mayor Pablo Lagerenza,PY,-19.9309,-60.7718,75.81,74,89,10.02,overcast clouds
268,Rio Gallegos,AR,-51.6226,-69.2181,39.2,70,0,18.41,clear sky
269,Kirakira,SB,-10.4544,161.9205,79.97,85,100,16.02,heavy intensity rain
270,Rancho Palos Verdes,US,33.7445,-118.387,52.72,86,100,14.23,moderate rain
271,Natal,BR,-5.795,-35.2094,80.6,74,40,6.91,scattered clouds
272,Chokurdakh,RU,70.6333,147.9167,-17.41,88,100,6.69,overcast clouds
273,Hovd,MN,48.0056,91.6419,20.35,68,0,2.21,clear sky
274,Cuddapah,IN,14.4667,78.8167,82.4,61,20,9.22,haze
275,Erzin,TR,36.9559,36.2,43.0,97,100,4.0,light rain
276,Beaumont,US,30.0861,-94.1019,46.4,71,1,3.44,clear sky
277,Kahului,US,20.8947,-156.47,73.4,64,20,12.66,few clouds
278,Tver,RU,56.8619,35.8931,32.04,98,100,8.63,snow
279,Havelock,US,34.8791,-76.9013,30.2,69,1,9.22,clear sky
280,Umea,SE,63.8284,20.2597,-2.2,92,0,4.61,light snow
281,Arroyo,ES,41.6096,-4.7969,50.0,93,75,13.8,broken clouds
282,Le Port,RE,-20.9373,55.2919,86.0,66,26,13.8,light rain
283,Mujiayingzi,CN,42.1167,118.7833,18.88,90,0,8.99,clear sky
284,Esperance,AU,-33.8667,121.9,75.2,46,0,19.57,clear sky
285,Karratha,AU,-20.7377,116.8463,91.99,44,0,13.62,clear sky
286,Port Lincoln,AU,-34.7333,135.8667,68.32,68,52,17.47,broken clouds
287,Oxbow,CA,49.2333,-102.1676,9.0,89,100,10.0,overcast clouds
288,Kidal,ML,18.4411,1.4078,61.02,31,15,16.82,few clouds
289,Pinega,RU,64.7001,43.3936,6.12,94,100,8.5,light snow
290,Chumikan,RU,54.7183,135.315,-9.63,86,100,5.14,overcast clouds
291,Sanary-Sur-Mer,FR,43.1178,5.8001,57.0,79,98,5.01,overcast clouds
292,Leningradskiy,RU,69.3833,178.4167,-23.57,85,85,6.46,overcast clouds
293,Kozhevnikovo,RU,56.2589,83.9714,25.0,95,100,5.99,overcast clouds
294,Buala,SB,-8.145,159.5921,80.8,82,100,9.66,moderate rain
295,Belaya Gora,RU,68.5333,146.4167,-27.62,85,100,5.39,overcast clouds
296,Sukhumi,GE,43.0033,41.0153,44.78,78,100,3.15,overcast clouds
297,El Jicaro,GT,14.9167,-89.9,66.94,71,98,4.65,overcast clouds
298,Finschhafen,PG,-6.6024,147.8681,84.4,77,57,17.31,broken clouds
299,Sao Lourenco Do Sul,BR,-31.3653,-51.9783,72.0,95,100,3.0,overcast clouds
300,Sabha,LY,27.0377,14.4283,51.31,50,0,6.31,clear sky
301,Tilichiki,RU,60.4667,166.1,-0.99,94,98,10.31,overcast clouds
302,Novo Aripuana,BR,-5.1206,-60.3797,72.81,98,97,1.83,overcast clouds
303,Yaval,IN,21.1667,75.7,82.56,20,0,6.46,clear sky
304,Lusambo,CD,-4.9667,23.45,76.33,64,99,0.72,overcast clouds
305,Ahipara,NZ,-35.1667,173.1667,61.32,65,0,13.42,clear sky
306,Quang Ngai,VN,15.1167,108.8,73.49,73,80,9.66,light rain
307,Hofn,IS,64.2539,-15.2082,28.89,87,0,5.64,clear sky
308,Sao Joao Da Barra,BR,-21.6403,-41.0511,75.09,83,0,14.32,clear sky
309,Coihaique,CL,-45.5752,-72.0662,46.4,81,75,2.3,light rain
310,Cabo San Lucas,MX,22.8909,-109.9124,62.01,82,1,6.91,clear sky
311,Gijon,ES,43.5357,-5.6615,59.0,87,100,2.17,overcast clouds
312,Srednekolymsk,RU,67.45,153.6833,-23.76,86,100,5.64,overcast clouds
313,Auki,SB,-8.7676,160.7034,77.25,87,100,7.23,overcast clouds
314,Kutum,SD,14.2,24.6667,62.31,25,0,15.97,clear sky
315,Mahibadhoo,MV,3.7833,72.9667,81.07,73,62,13.09,broken clouds
316,Dingle,PH,10.9995,122.6711,77.41,84,100,11.27,overcast clouds
317,Palu,ID,-0.8917,119.8707,84.61,67,100,3.71,overcast clouds
318,Darhan,MN,49.4867,105.9228,3.38,88,46,1.99,scattered clouds
319,Cururupu,BR,-1.8283,-44.8683,73.99,95,61,0.74,broken clouds
320,Vasterhaninge,SE,59.1167,18.1,24.04,98,100,8.52,overcast clouds
321,Victoria,HK,22.2855,114.1577,71.01,57,0,1.99,clear sky
322,Madruga,CU,22.9114,-81.8561,64.4,72,1,10.36,clear sky
323,Linfen,CN,36.0889,111.5189,48.36,38,100,3.4,overcast clouds
324,Belyy Yar,RU,53.6039,91.3903,30.2,69,100,24.61,snow
325,Saint George,US,37.1041,-113.5841,48.2,40,1,20.71,clear sky
326,Yantal,RU,56.8471,105.2542,-19.53,80,92,2.89,overcast clouds
327,Castro,BR,-24.7911,-50.0119,64.2,96,100,3.38,overcast clouds
328,Olafsvik,IS,64.8945,-23.7142,31.17,89,86,4.99,overcast clouds
329,Sao Geraldo Do Araguaia,BR,-6.4006,-48.555,71.53,94,100,0.58,light rain
330,Kerman,IR,30.2832,57.0788,53.6,16,0,0.36,clear sky
331,Dubbo,AU,-32.25,148.6167,84.2,45,100,12.66,overcast clouds
332,Gao,ML,16.6362,1.637,61.99,31,0,16.78,clear sky
333,Torbay,CA,47.6666,-52.7314,18.0,93,40,5.75,scattered clouds
334,Fortuna,US,40.5982,-124.1573,39.99,100,90,4.34,overcast clouds
335,Rio De Janeiro,BR,-22.9028,-43.2075,79.0,69,0,4.61,clear sky
336,Volosovo,RU,59.4333,29.4833,30.2,93,75,6.71,light snow
337,Gua Musang,MY,4.8823,101.9644,86.38,50,99,3.91,overcast clouds
338,Namibe,AO,-15.1961,12.1522,73.72,74,100,3.74,overcast clouds
339,Caramay,PH,10.1815,119.236,82.45,68,21,15.39,few clouds
340,Himare,AL,40.1017,19.7447,49.55,69,48,11.36,scattered clouds
341,Pevek,RU,69.7008,170.3133,-24.25,87,57,4.74,broken clouds
342,Nalvo,PH,16.8096,120.5108,75.47,75,68,4.5,broken clouds
343,Kungurtug,RU,50.5994,97.5228,21.85,91,100,5.32,light snow
344,Kudahuvadhoo,MV,2.6708,72.8944,80.78,77,79,13.0,broken clouds
345,Ossora,RU,59.2353,163.0719,0.34,86,84,3.91,broken clouds
346,Fairbanks,US,64.8378,-147.7164,3.0,77,40,2.66,light snow
347,Amga,RU,60.8953,131.9608,-38.58,78,100,2.48,overcast clouds
348,Turukhansk,RU,65.8167,87.9833,-25.13,80,100,9.69,overcast clouds
349,Moroni,KM,-11.7022,43.2551,83.91,70,16,9.89,few clouds
350,Baranain,ES,42.8057,-1.6773,48.31,87,44,0.4,scattered clouds
351,Half Moon Bay,US,37.4636,-122.4286,48.2,100,90,3.44,light rain
352,San Cristobal,VE,7.7669,-72.225,63.88,85,100,1.19,overcast clouds
353,Grezzana,IT,45.5203,11.0177,35.38,84,100,2.17,overcast clouds
354,Lamu,KE,-2.2717,40.902,80.89,74,99,12.44,overcast clouds
355,Margate,GB,51.3813,1.3862,48.0,80,44,5.01,scattered clouds
356,Bayji,IQ,34.9311,43.487,57.49,52,100,8.88,overcast clouds
357,Svetlaya,RU,46.5389,138.3297,13.28,93,100,22.12,light snow
358,Yar-Sale,RU,66.8333,70.8333,-37.1,81,21,10.69,few clouds
359,Korla,CN,41.7597,86.1469,34.93,66,0,3.47,clear sky
360,San Andres,CO,12.5847,-81.7006,80.6,69,20,20.71,few clouds
361,Sao Joaquim,BR,-28.2939,-49.9317,60.98,100,100,7.38,overcast clouds
362,Molchanovo,RU,57.5817,83.7692,24.15,98,100,7.14,light snow
363,Aguimes,ES,27.9054,-15.4461,63.99,53,0,5.1,clear sky
364,Conceicao Do Araguaia,BR,-8.2578,-49.2647,72.09,93,69,2.13,broken clouds
365,Fort Morgan,US,40.2503,-103.8,26.6,86,1,9.22,clear sky
366,Ilulissat,GL,69.2167,-51.1,-1.35,68,0,5.5,clear sky
367,Sale,MA,34.0389,-6.8166,59.0,100,90,5.32,mist
368,Manica,FR,49.0,-1.1667,50.0,87,75,23.02,broken clouds
369,Yarim,YE,14.298,44.3779,61.7,29,0,1.36,clear sky
370,Nampula,MZ,-15.1165,39.2666,80.6,78,75,10.36,broken clouds
371,Tombouctou,ML,20.0,-3.0,61.56,27,0,11.65,clear sky
372,Fare,PF,-16.7,-151.0167,82.11,65,100,10.18,overcast clouds
373,Monkey Hill,KN,17.3167,-62.7167,76.95,75,23,7.25,few clouds
374,Douentza,ML,14.9951,-2.9517,60.42,25,34,4.14,scattered clouds
375,Hirara,JP,24.8,125.2833,60.8,63,75,13.8,broken clouds
376,Sirur,IN,18.8333,74.3833,81.3,31,95,4.7,overcast clouds
377,Angoche,MZ,-16.2325,39.9086,85.62,65,70,6.29,broken clouds
378,Talca,CL,-35.4333,-71.6667,64.4,63,100,2.3,overcast clouds
379,Kieta,PG,-6.2167,155.6333,82.24,80,100,10.89,moderate rain
380,Barand,HU,47.3,21.2333,34.0,100,90,6.91,mist
381,Namatanai,PG,-3.6667,152.4333,83.59,76,100,9.22,light rain
382,Madras,IN,13.0878,80.2785,86.0,54,40,12.66,haze
383,High Rock,BS,26.6208,-78.2833,64.4,63,75,17.27,broken clouds
384,Sawtell,AU,-30.3833,153.1,76.23,79,23,6.26,few clouds
385,Honiara,SB,-9.4333,159.95,77.86,88,100,11.07,light rain
386,Jian,CN,27.1172,114.9793,60.85,31,0,5.55,clear sky
387,Kjollefjord,NO,70.9457,27.3465,21.2,63,75,24.16,light snow
388,Watertown,US,42.3709,-71.1828,16.0,52,1,14.97,clear sky
389,Calbuco,CL,-41.768,-73.1273,51.8,93,0,3.44,clear sky
390,Homer,US,59.6425,-151.5483,28.4,86,90,4.61,overcast clouds
391,Coahuayana,MX,18.7333,-103.6833,74.79,61,54,3.85,broken clouds
392,Asfi,MA,32.2994,-9.2372,58.77,87,13,10.71,few clouds
393,Carlsbad,US,33.1581,-117.3506,57.0,76,90,6.91,overcast clouds
394,Hasaki,JP,35.7333,140.8333,48.0,45,0,23.13,clear sky
395,Tefe,BR,-3.3542,-64.7114,71.91,97,90,1.9,overcast clouds
396,Grand-Lahou,CI,5.1367,-5.0242,78.22,89,4,5.01,clear sky
397,Chilliwack,CA,49.1747,-121.9443,37.4,70,89,6.91,overcast clouds
398,Dhidhdhoo,MV,6.8833,73.1,81.16,56,0,5.82,clear sky
399,Bambous Virieux,MU,-20.3428,57.7575,86.0,62,40,16.11,scattered clouds
400,Hasilpur,PK,29.7122,72.5553,71.19,19,0,3.89,clear sky
401,Morgan City,US,29.6994,-91.2068,44.53,79,10,4.29,clear sky
402,Gimli,CA,50.6336,-96.9907,-0.4,78,100,6.91,overcast clouds
403,Ketchikan,US,55.3422,-131.6461,21.2,86,1,4.5,clear sky
404,Mineros,BO,-17.1167,-63.2333,73.4,94,90,17.27,overcast clouds
405,Lata,PT,40.1629,-8.3327,55.99,94,10,1.01,clear sky
406,Dicabisagan,PH,17.0818,122.4157,71.58,82,82,12.06,broken clouds
407,Tammisaari,FI,59.9736,23.4339,21.0,94,100,9.69,overcast clouds
408,Talnakh,RU,69.4865,88.3972,-30.64,71,3,2.71,clear sky
409,Morristown,US,36.214,-83.2949,25.0,86,1,2.37,clear sky
410,Alekseyevka,RU,50.6309,38.6903,29.17,95,96,20.13,overcast clouds
411,Ancud,CL,-41.8697,-73.8203,50.0,93,0,5.75,clear sky
412,Sangar,RU,63.9242,127.4739,-49.63,75,91,3.89,overcast clouds
413,Marsh Harbour,BS,26.5412,-77.0636,64.49,69,65,21.79,broken clouds
414,Gizo,SB,-8.103,156.8419,82.54,71,100,2.15,light rain
415,Shuangyang,CN,43.5242,125.6736,1.4,32,0,6.71,clear sky
416,Mitsamiouli,KM,-11.3847,43.2844,83.52,71,19,8.41,few clouds
417,Puerto Ayacucho,VE,5.6639,-67.6236,73.71,69,83,7.9,broken clouds
418,Taltal,CL,-25.4,-70.4833,62.56,77,31,0.31,scattered clouds
419,Tiksi,RU,71.6872,128.8694,-31.77,84,35,5.91,scattered clouds
420,Luocheng,CN,29.3848,104.0286,54.21,61,99,2.33,overcast clouds
421,Ocos,GT,14.5094,-92.1933,68.0,88,100,4.63,overcast clouds
422,Mizan Teferi,ET,6.9833,35.5833,73.98,51,80,0.51,broken clouds
423,Cayenne,GF,4.9333,-52.3333,73.4,100,75,7.27,broken clouds
424,Silver City,US,32.7701,-108.2803,37.4,75,90,3.44,overcast clouds
425,Codrington,AU,-38.2667,141.9667,69.87,66,0,15.5,clear sky
426,Waipawa,NZ,-41.4122,175.5153,59.0,63,20,21.85,few clouds
427,Ust-Maya,RU,60.4167,134.5333,-44.41,76,69,1.34,broken clouds
428,Luderitz,NA,-26.6481,15.1594,74.82,40,0,20.56,clear sky
429,Tarpon Springs,US,28.1461,-82.7568,48.99,61,96,5.75,overcast clouds
430,Abu Kamal,SY,34.4506,40.9171,53.24,67,100,17.85,overcast clouds
431,Gacko,BA,43.1672,18.5353,30.43,97,97,4.56,overcast clouds
432,Shetpe,KZ,44.1667,52.1167,40.75,78,100,9.31,overcast clouds
433,Pilas,ES,37.3034,-6.301,53.31,88,0,2.51,clear sky
434,Lodja,CD,-3.4833,23.4333,75.74,68,100,2.01,overcast clouds
435,Zolotukhino,RU,52.0842,36.3772,30.99,100,90,17.9,snow
436,Nishihara,JP,26.1842,127.7558,59.0,54,75,18.41,broken clouds
437,Ust-Nera,RU,64.5667,143.2,-19.37,78,100,1.88,overcast clouds
438,Loiza,PR,18.4313,-65.8802,71.55,78,25,3.56,scattered clouds
439,San Patricio,US,28.017,-97.5169,55.4,71,1,8.05,clear sky
440,High Level,CA,58.5169,-117.136,-16.65,89,54,5.37,broken clouds
441,Nikel,RU,69.4128,30.222,5.22,92,100,7.54,overcast clouds
442,San Policarpo,PH,12.1791,125.5072,78.19,84,100,22.53,overcast clouds
443,Narsaq,GL,60.9167,-46.05,44.6,31,75,39.12,broken clouds
444,Toropets,RU,56.4978,31.6353,30.22,98,100,6.53,snow
445,Cabatuan,PH,10.8794,122.486,78.76,80,72,16.69,broken clouds
446,La Rioja,ES,42.25,-2.5,45.81,84,100,7.83,overcast clouds
447,Ilebo,CD,-4.3167,20.5833,78.85,73,100,2.15,overcast clouds
448,Hienghene,NC,-20.6833,164.9333,77.65,83,92,11.86,overcast clouds
449,Minsk Mazowiecki,PL,52.1794,21.5725,26.17,97,99,15.82,overcast clouds
450,Enumclaw,US,47.2043,-121.9915,39.99,95,25,2.89,scattered clouds
451,Savonlinna,FI,61.8699,28.88,23.25,97,100,8.63,light snow
452,Birzai,LT,56.2,24.75,20.84,98,100,6.62,overcast clouds
453,Bandarbeyla,SO,9.4942,50.8122,77.22,64,30,16.15,scattered clouds
454,Constitucion,CL,-35.3333,-72.4167,59.25,86,100,3.4,overcast clouds
455,Am Timan,TD,11.0297,20.2827,76.64,16,96,9.82,overcast clouds
456,Olenino,RU,56.2092,33.4889,33.17,96,100,12.12,light snow
457,Dryden,CA,49.7833,-92.7503,-7.6,77,1,5.75,clear sky
458,Mabaruma,GY,8.2,-59.7833,69.4,96,100,1.21,overcast clouds
459,Havoysund,NO,70.9963,24.6622,21.2,63,75,24.16,broken clouds
460,Riyadh,SA,24.6877,46.7219,75.43,19,43,14.03,scattered clouds
461,Gorontalo,ID,0.5412,123.0595,89.22,49,5,5.79,clear sky
462,Limoux,FR,42.9167,2.1667,53.6,94,90,9.22,light rain
463,Lavumisa,SZ,-27.31,31.892,79.79,59,61,3.42,broken clouds
464,Mosquera,CO,4.7059,-74.2302,51.8,93,75,0.16,broken clouds
465,Dawei,MM,14.0833,98.2,91.26,41,50,5.61,scattered clouds
466,Jati,PK,24.3539,68.2671,77.95,14,0,4.03,clear sky
467,Te Anau,NZ,-45.4167,167.7167,52.25,73,18,4.76,few clouds
468,Ardesen,TR,41.1911,40.9875,46.47,76,100,9.64,overcast clouds
469,Awbari,LY,26.5921,12.7805,50.94,45,0,3.6,clear sky
470,San Vicente,AR,-26.6167,-54.1333,67.21,100,56,5.12,light rain
471,Angren,UZ,41.0167,70.1436,42.78,62,0,7.05,clear sky
472,Sandy Bay,AU,-42.913,147.3532,60.06,80,100,13.0,light rain
473,Maningrida,AU,-12.0667,134.2667,78.78,89,99,13.49,light rain
474,Daru,PG,-9.0763,143.2092,81.64,83,100,14.94,heavy intensity rain
475,Zheshart,RU,62.0731,49.5733,22.75,97,100,9.62,snow
476,Bowen,AU,-20.0167,148.2333,82.4,74,40,16.11,scattered clouds
477,Mehamn,NO,71.0357,27.8492,21.2,68,40,21.85,snow
478,Meulaboh,ID,4.1363,96.1285,85.77,61,7,5.97,clear sky
479,Gat,IL,31.61,34.7642,48.99,29,100,3.0,moderate rain
480,Odweyne,SO,9.4092,45.064,76.48,25,0,10.42,clear sky
481,Middelburg,ZA,-25.7751,29.4648,68.68,75,81,7.27,broken clouds
482,Ambilobe,MG,-13.2,49.05,84.96,70,79,4.18,light rain
483,Olinda,BR,-8.0089,-34.8553,78.8,73,40,5.75,scattered clouds
484,Byron Bay,AU,-28.65,153.6167,77.16,64,92,8.7,overcast clouds
485,Vestmannaeyjar,IS,63.4427,-20.2734,37.4,75,0,13.8,clear sky
486,Qingyuan,CN,23.7,113.0333,72.25,23,0,0.83,clear sky
487,Le Pradet,FR,43.1066,6.0172,55.87,78,91,16.67,overcast clouds
488,Christchurch,NZ,-43.5333,172.6333,59.0,55,20,16.11,few clouds
489,Ballina,AU,-28.8667,153.5667,80.6,65,40,10.36,scattered clouds
490,Bahir Dar,ET,11.5936,37.3908,74.28,29,0,6.46,clear sky
491,Palauig,PH,15.435,119.9045,82.38,55,0,2.21,clear sky
492,Arsk,RU,56.0915,49.8778,19.4,79,75,11.18,light snow
493,Roald,NO,62.5833,6.1333,35.6,64,75,14.97,snow
494,Guanare,VE,9.0418,-69.7421,70.81,71,1,1.83,clear sky
495,Arlit,NE,18.7369,7.3853,60.69,31,38,5.86,scattered clouds
496,Puerto Escondido,MX,15.85,-97.0667,77.22,55,99,6.24,overcast clouds
497,Casambalangan,PH,18.3765,122.1274,70.14,83,100,18.7,light rain
498,Twistringen,DE,52.8,8.65,32.22,97,100,17.49,light snow
499,Morondava,MG,-20.2833,44.2833,84.83,69,4,2.59,clear sky
500,Key West,US,24.5557,-81.7826,62.6,59,1,16.11,clear sky
501,Ucluelet,CA,48.9329,-125.5528,39.99,87,39,6.93,scattered clouds
502,Kesinga,IN,20.2,83.2333,88.41,33,0,5.77,clear sky
503,Dandong,CN,40.1292,124.3947,12.79,81,0,2.57,clear sky
504,The Valley,AI,18.217,-63.0578,77.0,83,75,3.44,broken clouds
505,Andenes,NO,69.3143,16.1194,23.29,93,100,19.37,overcast clouds
506,Grand Haven,US,43.0631,-86.2284,16.0,80,96,5.03,overcast clouds
507,Kalemie,CD,-5.9475,29.1947,76.53,74,23,3.02,few clouds
508,Altay,CN,47.8667,88.1167,11.07,85,0,0.25,clear sky
509,Buchanan,LR,5.8808,-10.0467,78.64,85,83,3.8,broken clouds
510,Shingu,JP,33.7333,135.9833,41.0,42,75,25.32,broken clouds
511,Kaitangata,NZ,-46.2817,169.8464,51.85,70,100,9.57,overcast clouds
512,Antofagasta,CL,-23.65,-70.4,66.2,77,75,4.61,broken clouds
513,Lobito,AO,-12.3481,13.5456,78.13,68,99,4.25,overcast clouds
514,Camabatela,AO,-8.1881,15.375,66.11,98,93,2.98,light rain
515,Nyurba,RU,63.2842,118.3319,-44.7,77,84,1.61,broken clouds
516,Port Macquarie,AU,-31.4333,152.9167,78.01,78,90,14.7,overcast clouds
517,Tempio Pausania,IT,40.8974,9.1035,59.0,67,0,14.97,clear sky
518,Santiago Del Estero,AR,-27.7951,-64.2615,74.5,63,0,8.84,clear sky
519,Narwar,IN,25.65,77.9,67.95,24,0,6.02,clear sky
520,Kapit,MY,2.0167,112.9333,79.79,90,100,3.53,overcast clouds
521,Fort Nelson,CA,58.8053,-122.7002,-22.0,76,40,0.87,scattered clouds
522,Pilani,IN,28.3684,75.6041,69.1,22,0,6.02,clear sky
523,Mount Pleasant,US,32.7941,-79.8626,39.67,68,0,12.5,clear sky
524,Axim,GH,4.8699,-2.2405,77.97,90,1,4.25,clear sky
525,Quesnel,CA,52.9999,-122.5029,10.4,72,90,3.44,light snow
526,Henties Bay,NA,-22.116,14.2845,64.98,83,94,3.65,overcast clouds
527,Danane,CI,7.2596,-8.155,71.49,90,96,1.39,overcast clouds
528,Richards Bay,ZA,-28.783,32.0377,70.97,88,99,4.14,overcast clouds
529,Mariental,NA,-24.6333,17.9667,82.89,15,58,14.45,broken clouds
530,Kamyaran,IR,34.7956,46.9355,43.59,70,95,5.41,overcast clouds
531,Prince Rupert,CA,54.3161,-130.3201,32.0,74,1,6.91,clear sky
532,Imeni Poliny Osipenko,RU,52.4201,136.4853,-8.77,89,100,4.88,overcast clouds
533,Beyneu,KZ,45.3167,55.2,45.27,56,100,25.01,overcast clouds
534,Nortelandia,BR,-14.4547,-56.8028,72.57,91,100,2.86,light rain
535,Puerto Maldonado,PE,-12.6,-69.1833,71.1,97,100,2.8,overcast clouds
536,Tuy Hoa,VN,13.0833,109.3,73.8,75,70,18.37,light rain
537,Salinas,US,36.6777,-121.6555,48.2,93,90,10.36,moderate rain
538,Puerto Madryn,AR,-42.7692,-65.0385,65.48,35,0,11.18,clear sky
539,Santa Luzia,BR,-19.7697,-43.8514,68.0,72,0,2.3,clear sky
540,Buncrana,IE,55.1333,-7.45,42.93,93,98,2.39,overcast clouds
541,Metro,ID,-5.1131,105.3067,84.11,69,100,14.63,overcast clouds
542,Shizunai,JP,42.3339,142.3669,32.49,91,100,15.99,light snow
543,Ruteng,ID,-8.6136,120.4721,66.69,100,100,5.88,light rain
544,Broome,US,42.2506,-75.833,14.0,72,90,13.8,light snow
545,Mareeba,AU,-17.0,145.4333,82.35,64,95,7.18,overcast clouds
546,Hualmay,PE,-11.0964,-77.6139,69.85,78,100,1.57,overcast clouds
547,Yakeshi,CN,49.2833,120.7333,-10.77,89,100,4.7,overcast clouds
548,Naze,JP,28.3667,129.4833,55.4,58,40,13.8,scattered clouds
549,Labuan,MY,5.2767,115.2417,81.39,77,100,16.26,overcast clouds
550,Cintalapa,MX,16.6951,-93.7272,66.83,82,100,15.39,overcast clouds
551,Mangochi,MW,-14.4782,35.2645,76.66,84,94,2.89,light rain
552,Tagab,AF,34.855,69.6492,42.8,22,0,2.3,haze
553,Makakilo City,US,21.3469,-158.0858,75.2,60,1,8.05,clear sky
554,Qaqortoq,GL,60.7167,-46.0333,44.6,31,75,39.12,broken clouds
555,Yinchuan,CN,38.4681,106.2731,38.3,52,0,2.55,clear sky
556,Tuim,RU,54.3417,89.9261,24.35,90,100,24.54,overcast clouds
557,Kasongo-Lunda,CD,-6.4667,16.8167,74.34,86,82,1.99,broken clouds
558,Dudinka,RU,69.4058,86.1778,-33.07,77,2,7.83,clear sky
559,Biak,ID,-0.9131,122.8766,86.05,55,95,2.89,overcast clouds
560,Rabo De Peixe,PT,37.8,-25.5833,60.89,91,100,27.36,overcast clouds
561,Guayaramerin,BO,-10.8368,-65.3614,72.25,98,100,2.84,overcast clouds
562,Makaryev,RU,57.8797,43.8069,17.29,97,100,8.41,overcast clouds
563,Karwar,IN,14.8,74.1333,85.05,42,10,5.55,clear sky
564,Ust-Koksa,RU,50.2696,85.6108,20.03,90,100,0.72,light snow
565,Itarema,BR,-2.9248,-39.9167,77.36,85,100,8.21,light rain
566,Pilar,BR,-9.5972,-35.9567,72.63,90,99,2.84,overcast clouds
567,Rimouski,CA,48.4488,-68.524,11.89,92,97,8.25,overcast clouds
568,Kamyzyak,RU,46.11,48.0736,32.0,93,40,13.42,scattered clouds
569,Carndonagh,IE,55.25,-7.2667,43.02,94,100,4.25,overcast clouds
570,Smidovich,RU,48.6,133.8167,-3.55,86,100,5.55,overcast clouds
571,Saint-Georges,GD,12.0564,-61.7485,75.2,83,20,6.91,few clouds
572,Coquimbo,CL,-29.9533,-71.3436,59.0,88,0,2.3,clear sky
573,Baykit,RU,61.67,96.37,-32.82,76,100,4.43,overcast clouds
574,Nhulunbuy,AU,-12.2333,136.7667,84.54,74,100,8.63,light rain
575,Adre,TD,13.4667,22.2,68.09,20,0,23.02,clear sky
576,Labuhan,ID,-6.8844,112.2051,82.87,78,80,20.98,broken clouds
577,Nouakchott,MR,18.0858,-15.9785,60.8,25,0,8.05,clear sky
578,Petropavlovsk-Kamchatskiy,RU,53.0452,158.6483,14.86,90,100,9.51,overcast clouds
579,Saldanha,ZA,-33.0117,17.9442,62.6,72,0,5.75,clear sky
580,Shiraz,IR,29.6036,52.5388,51.8,28,0,2.51,clear sky
581,Manturovo,RU,58.3353,44.7619,16.02,97,100,7.45,overcast clouds
582,Naryan-Mar,RU,67.6713,53.087,-29.36,83,84,8.12,broken clouds
583,Bolgar,RU,54.95,49.0667,21.2,79,90,8.95,light snow
584,Stornoway,GB,58.2093,-6.3865,41.0,65,75,21.85,broken clouds
585,Winneba,GH,5.3511,-0.6231,77.76,90,1,4.59,clear sky
586,Pacifica,US,37.6138,-122.4869,48.99,87,75,3.44,broken clouds
587,Verkhoyansk,RU,67.5447,133.385,-47.87,73,66,0.29,broken clouds
588,Lebedinyy,RU,58.5167,125.5167,-36.06,81,100,4.09,overcast clouds
589,Vaterstetten,DE,48.1101,11.7689,41.65,93,100,10.76,moderate rain
590,Melo,UY,-32.3667,-54.1833,61.7,91,0,6.53,clear sky
591,Thinadhoo,MV,0.5333,72.9333,82.38,74,18,9.8,few clouds
592,Portland,US,45.5234,-122.6762,43.0,87,90,1.7,overcast clouds
593,Malanje,AO,-9.5402,16.341,67.53,94,81,4.72,broken clouds
594,Muros,ES,42.7762,-9.0603,57.99,93,100,8.01,overcast clouds
595,Iquique,CL,-20.2208,-70.1431,68.0,68,0,3.44,clear sky
596,Moerai,PF,-22.4333,-151.3333,81.16,73,10,13.89,light rain
597,Baiquan,CN,47.5833,126.0833,-9.11,88,100,6.53,overcast clouds
598,Bacolod,PH,10.6667,122.95,80.83,74,48,21.68,scattered clouds
599,Matagami,CA,49.7502,-77.6328,-0.4,85,90,11.5,light snow
600,Isla Vista,US,34.4133,-119.861,50.0,87,90,6.91,mist
601,Linhares,BR,-19.3911,-40.0722,70.41,96,3,2.66,clear sky
602,Trinidad,BO,-14.8333,-64.9,72.88,97,60,5.12,broken clouds
603,Cap Malheureux,MU,-19.9842,57.6142,81.52,73,0,13.38,clear sky
604,Baindur,IN,13.8667,74.6333,87.17,42,0,5.68,clear sky
605,Port Blair,IN,11.6667,92.75,83.26,70,0,11.27,clear sky
606,Kamalpur,IN,24.2,91.8333,81.32,28,0,3.98,clear sky
607,Orlik,RU,52.5178,99.825,16.34,86,100,11.25,overcast clouds
608,Mao,ES,39.8885,4.2658,62.78,68,100,21.09,overcast clouds
609,Kununurra,AU,-15.7667,128.7333,82.4,100,40,10.36,scattered clouds
610,Tres Lagoas,BR,-20.7511,-51.6783,72.88,88,100,5.01,overcast clouds
611,Saint Anthony,US,45.0205,-93.218,19.4,68,90,9.22,overcast clouds
612,Montepuez,MZ,-13.1256,38.9997,78.53,80,100,5.39,light rain
613,Sursk,RU,53.0754,45.6846,24.01,67,100,9.44,overcast clouds
614,Gushikawa,JP,26.3544,127.8686,59.0,51,90,18.41,overcast clouds
615,Siparia,TT,10.1333,-61.5,72.0,93,100,6.08,overcast clouds
616,Zhanakorgan,KZ,43.9098,67.2495,35.1,81,0,2.8,clear sky
617,Say,NE,13.1007,2.3689,67.26,24,45,11.01,scattered clouds
618,Finnsnes,NO,69.2296,17.9811,15.8,57,75,8.05,broken clouds
619,Taphan Hin,TH,16.2209,100.4198,91.0,33,2,4.34,clear sky
620,Liverpool,GB,53.4106,-2.9779,45.0,93,90,4.61,overcast clouds
621,Norton,ZW,-17.8833,30.7,66.16,92,100,1.32,light rain
622,Paramirim,BR,-13.4425,-42.2389,67.3,83,38,4.36,scattered clouds
623,Crnici,BA,43.1289,17.8667,37.4,93,90,2.3,mist
624,Soyo,AO,-6.1349,12.3689,80.65,82,93,4.85,overcast clouds
625,Tshikapa,CD,-6.4167,20.8,76.64,83,100,0.96,overcast clouds
626,Kapoeta,SS,4.7717,33.5903,90.81,27,97,20.2,overcast clouds
627,Egvekinot,RU,66.3167,-179.1667,-21.26,84,85,19.86,overcast clouds
628,Pisco,PE,-13.7,-76.2167,69.8,78,0,9.22,clear sky
629,Banswara,IN,23.55,74.45,76.55,17,0,8.86,clear sky
630,Madera,US,37.1666,-119.8343,39.0,93,100,1.99,heavy intensity rain
631,Mangrol,IN,21.1167,70.1167,78.04,22,0,7.87,clear sky
632,Saint-Pierre,RE,-21.3393,55.4781,82.63,64,29,0.34,light rain
633,Pauini,BR,-7.7136,-66.9764,72.34,99,100,2.15,overcast clouds
634,Tsabong,BW,-26.0217,22.401,80.15,29,98,11.92,overcast clouds
635,Nara,JP,34.6851,135.8049,42.8,39,20,21.85,few clouds
636,Kshenskiy,RU,51.8408,37.7136,27.84,97,99,22.39,light snow
637,Sibenik,HR,43.7272,15.9058,48.0,76,90,5.75,overcast clouds
638,Soskovo,RU,52.7475,35.3828,27.21,98,100,12.17,snow
639,Soe,ID,-9.8607,124.284,74.1,84,100,7.38,overcast clouds
640,Rorvik,NO,64.8621,11.2373,23.0,93,75,14.97,light snow
641,Abu Dhabi,AE,24.4667,54.3667,69.8,46,0,9.22,clear sky
642,Wiwili,NI,13.6268,-85.8254,66.18,88,98,5.01,overcast clouds
643,Nanakuli,US,21.3906,-158.1547,72.16,70,0,17.74,clear sky
644,Rantepao,ID,-2.9701,119.8978,76.55,82,100,1.19,overcast clouds
645,Marzuq,YE,14.4,46.4667,76.17,15,1,3.29,clear sky
646,Yulara,AU,-25.2406,130.9889,93.2,33,75,17.27,broken clouds
647,Maxixe,MZ,-23.8597,35.3472,80.6,89,75,2.3,light rain
648,Eureka,US,40.8021,-124.1637,37.99,97,0,1.01,clear sky
649,Nantucket,US,41.2835,-70.0995,21.2,68,90,23.02,overcast clouds
650,Hearst,CA,49.6835,-83.6665,3.2,85,100,5.75,overcast clouds
651,Leirvik,NO,59.7798,5.5005,28.0,79,0,3.0,clear sky
652,Bilibino,RU,68.0546,166.4372,-20.94,81,76,6.26,broken clouds
653,Maple Creek,CA,49.9168,-109.4848,23.0,85,100,2.3,overcast clouds
654,Ganzhou,CN,28.8184,115.4327,56.62,37,0,3.22,clear sky
655,George,ZA,-33.963,22.4617,65.66,63,0,6.13,clear sky
656,Pontes E Lacerda,BR,-15.2261,-59.3353,71.83,94,97,1.1,overcast clouds
657,Yerbogachen,RU,61.2767,108.0108,-32.53,81,41,4.85,scattered clouds
658,Roswell,US,34.0232,-84.3616,32.0,59,1,6.91,clear sky
659,Gambiran,ID,-6.7988,111.4951,78.39,85,100,11.81,light rain
660,Tiarei,PF,-17.5333,-149.3333,78.01,73,75,3.44,broken clouds
661,Krasnoturansk,RU,54.3186,91.5639,30.2,69,100,24.61,snow
662,Ballymena,GB,54.8636,-6.2763,39.7,94,94,4.81,overcast clouds
663,Marawi,PH,7.9986,124.2928,80.01,84,100,11.01,overcast clouds
664,Ostrovnoy,RU,68.0531,39.5131,4.17,88,100,20.0,overcast clouds
665,Porto Nacional,BR,-10.7081,-48.4172,71.6,88,20,5.75,few clouds
666,Pemangkat,ID,1.1667,108.9667,78.4,86,100,15.1,overcast clouds
667,Viedma,AR,-40.8135,-62.9967,62.33,66,0,8.52,clear sky
668,Guaratuba,BR,-25.8828,-48.5747,73.0,92,100,23.0,overcast clouds
669,Zigong,CN,29.3416,104.7769,57.43,51,96,5.1,overcast clouds
670,Udachnyy,RU,66.4167,112.4,-38.96,80,90,2.62,overcast clouds
671,Qasigiannguit,GL,68.8193,-51.1922,-5.64,70,0,0.69,clear sky
672,Kalabo,ZM,-14.97,22.6814,71.74,80,100,10.69,overcast clouds
673,Binga,ZW,-17.6203,27.3414,71.82,92,100,4.7,moderate rain
674,Raton,US,36.9034,-104.4391,26.01,68,1,4.61,clear sky
675,Sambava,MG,-14.2667,50.1667,86.49,60,9,4.21,clear sky
676,North Bend,US,43.4065,-124.2243,39.43,90,2,3.71,clear sky
677,Emba,KZ,48.8264,58.1442,23.81,90,100,18.95,overcast clouds
678,Blackfoot,US,43.1905,-112.345,39.99,65,75,3.44,broken clouds
679,Khuzhir,RU,53.1939,107.3397,-8.54,80,13,7.67,few clouds
680,Qiyang,CN,26.5911,111.8474,61.41,32,63,2.86,broken clouds
681,Grand Gaube,MU,-20.0064,57.6608,84.99,67,0,10.0,clear sky
682,Ust-Ishim,RU,57.6935,71.1665,24.55,98,100,7.16,overcast clouds
683,Santa Rosa,PH,14.3122,121.1114,79.57,61,98,20.22,overcast clouds
684,Harrison,US,30.4091,-89.0436,42.37,76,87,8.41,overcast clouds
685,Chicama,PE,-7.8447,-79.1469,72.16,70,87,4.7,light rain
686,Thurso,GB,58.5927,-3.5259,35.65,83,58,14.25,broken clouds
687,Tiznit,MA,29.5833,-9.5,60.1,43,0,4.0,clear sky
688,Macamic,CA,48.7502,-78.9996,-3.32,91,100,7.36,overcast clouds
689,Kikwit,CD,-5.041,18.8162,76.59,84,77,1.88,broken clouds
690,Vao,NC,-22.6667,167.4833,76.64,78,67,22.5,broken clouds
691,Belmonte,BR,-15.8631,-38.8828,77.0,73,75,9.22,broken clouds
692,Saint Paul,US,44.9444,-93.0933,12.33,96,95,6.69,overcast clouds
693,Mankera,PK,31.3866,71.4407,66.34,23,0,1.3,clear sky
694,Grindavik,IS,63.8424,-22.4338,26.6,86,20,5.75,few clouds
695,Sept-Iles,CA,50.2001,-66.3821,8.6,66,14,14.97,few clouds
696,Hami,CN,42.8,93.45,31.05,75,0,1.66,clear sky
697,Chimalpa,MX,19.4333,-99.35,43.99,89,100,4.29,overcast clouds
698,Mogadishu,SO,2.0371,45.3438,82.4,54,75,16.11,broken clouds
699,Bobo Dioulasso,BF,11.1771,-4.2979,64.54,22,0,5.35,clear sky
700,Gondanglegi,ID,-7.7479,112.0132,84.02,74,97,15.17,overcast clouds
701,Pierre,US,44.3683,-100.351,20.82,96,0,9.01,clear sky
702,Alofi,NU,-19.0595,-169.9187,78.8,89,100,5.75,overcast clouds
703,Tambacounda,SN,13.7539,-13.7586,68.0,22,0,6.91,clear sky
704,Santiago De Cao,PE,-7.9589,-79.2392,70.21,80,79,9.17,broken clouds
705,Krasnoselkup,RU,65.7,82.4667,-22.97,85,100,10.58,overcast clouds
706,Matara,LK,5.9485,80.5353,87.19,63,87,1.39,overcast clouds
707,Camacha,PT,33.0833,-16.3333,57.88,94,0,11.52,clear sky
